City_ID,City,Lat,Lng,Max Temp,Humidity,Cloudiness,Wind Speed,Country,Date
0,whitehorse,60.7161,-135.0538,3.43,87,100,7.72,CA,1706545203
1,talnakh,69.4865,88.3972,-14.33,90,100,3.93,RU,1706545235
2,cabo san lucas,22.8909,-109.9124,25.98,51,40,1.03,MX,1706545177
3,sarkand,45.41,79.9186,-7.69,84,100,2.0,KZ,1706545236
4,invercargill,-46.4,168.35,13.34,88,90,1.8,NZ,1706544966
5,adamstown,-25.066,-130.1015,24.36,78,100,4.51,PN,1706545236
6,iqaluit,63.7506,-68.5145,-31.84,60,100,0.0,CA,1706545237
7,stanley,54.868,-1.6985,5.77,93,100,6.25,GB,1706545237
8,waitangi,-43.9535,-176.5597,16.01,98,85,0.89,NZ,1706545237
9,nejo,9.5,35.5,19.66,40,100,1.33,ET,1706545238
10,badger,64.8,-147.5333,-31.07,64,100,0.0,US,1706545238
11,kerikeri,-35.2268,173.9474,17.73,89,2,0.45,NZ,1706545238
12,margaret river,-33.95,115.0667,13.81,83,0,4.75,AU,1706545239
13,bilibino,68.0546,166.4372,-36.1,99,88,0.62,RU,1706545239
14,port-aux-francais,-49.35,70.2167,4.26,73,77,16.79,TF,1706545239
15,ciudad lazaro cardenas,17.9583,-102.2,27.17,65,100,0.88,MX,1706544986
16,avarua,-21.2078,-159.775,27.03,94,75,2.06,CK,1706545240
17,hithadhoo,-0.6,73.0833,28.0,72,39,3.66,MV,1706545240
18,blackmans bay,-43.0167,147.3167,10.29,77,1,2.03,AU,1706545240
19,olonkinbyen,70.9221,-8.7187,-5.25,65,100,7.66,SJ,1706545241
20,humaita,-7.5061,-63.0208,32.82,54,67,1.76,BR,1706545241
21,bethel,41.3712,-73.414,3.88,76,100,7.2,US,1706545116
22,yellowknife,62.456,-114.3525,-10.71,92,75,3.6,CA,1706545241
23,solnechnyy,50.7214,136.6319,-21.65,97,100,1.29,RU,1706545241
24,san antonio de pale,-1.4014,5.6325,28.22,78,54,4.93,GQ,1706545242
25,roznov pod radhostem,49.4585,18.143,3.36,79,3,2.3,CZ,1706545242
26,hawaiian paradise park,19.5933,-154.9731,22.24,89,20,2.06,US,1706545242
27,thompson,55.7435,-97.8558,-4.91,93,100,3.6,CA,1706545243
28,wailua homesteads,22.0669,-159.378,22.44,90,100,7.2,US,1706545243
29,floro,61.5996,5.0328,5.98,87,40,4.63,NO,1706545243
30,ilulissat,69.2167,-51.1,-23.99,64,40,0.0,GL,1706545243
31,vorkuta,67.5,64.0,-16.69,95,80,3.68,RU,1706545243
32,kupang,-10.1667,123.5833,26.32,100,95,1.03,ID,1706545244
33,port mathurin,-19.6833,63.4167,27.98,81,94,8.72,MU,1706545244
34,luganville,-15.5333,167.1667,26.26,83,100,2.02,VU,1706545244
35,keflavik,64.0049,-22.5624,1.24,80,75,19.03,IS,1706545244
36,aasiaat,68.7098,-52.8699,-29.72,97,100,1.95,GL,1706545244
37,tokar,18.4254,37.729,23.6,57,91,4.72,SD,1706545245
38,ribeira grande,38.5167,-28.7,18.22,82,20,7.72,PT,1706545245
39,bikenibeu village,1.3673,173.1241,26.98,83,75,2.57,KI,1706545245
40,port blair,11.6667,92.75,23.02,94,75,1.54,IN,1706545245
41,poli,-3.3333,36.8,20.75,68,97,0.14,TZ,1706545246
42,edinburgh of the seven seas,-37.0676,-12.3116,17.67,88,53,10.51,SH,1706545246
43,bamboo flat,11.7,92.7167,23.05,94,75,1.54,IN,1706545246
44,aldinga beach,-35.2793,138.4604,18.57,86,27,4.38,AU,1706545246
45,derbent,42.0678,48.2899,2.65,73,99,4.64,RU,1706545234
46,albany,42.6001,-73.9662,1.0,82,100,4.05,US,1706545247
47,arendal,58.4615,8.7725,2.89,91,100,2.5,NO,1706544957
48,masterton,-40.9597,175.6575,15.06,88,92,2.09,NZ,1706545247
49,vadso,70.0744,29.7487,3.49,70,64,20.06,NO,1706545247
50,aykhal,66.0,111.5,-20.2,100,100,1.33,RU,1706545247
51,kandi,11.1342,2.9386,34.81,10,50,2.12,BJ,1706545247
52,ushuaia,-54.8,-68.3,13.79,62,75,10.8,AR,1706545247
53,bam,29.106,58.357,13.37,28,100,2.2,IR,1706545247
54,hamilton,39.1834,-84.5333,2.1,88,100,3.6,US,1706545162
55,feijo,-8.1642,-70.3536,27.22,76,98,1.56,BR,1706545248
56,flying fish cove,-10.4217,105.6791,23.82,94,75,2.57,CX,1706545248
57,grytviken,-54.2811,-36.5092,8.37,48,53,5.0,GS,1706545248
58,laojunmiao,39.8333,97.7333,-6.4,40,13,1.99,CN,1706545248
59,mosjoen,65.836,13.1908,6.29,52,75,5.14,NO,1706545248
60,sandnessjoen,66.0217,12.6316,6.29,65,75,11.83,NO,1706545248
61,puerto baquerizo moreno,-0.9,-89.6,27.55,89,100,7.2,EC,1706545249
62,nieuw amsterdam,5.8833,-55.0833,30.09,89,40,2.06,SR,1706545249
63,woolgoolga,-30.1106,153.2007,25.02,88,99,2.67,AU,1706545249
64,el nido,11.1858,119.3956,26.29,73,97,10.07,PH,1706545249
65,kingston,17.997,-76.7936,29.58,61,20,3.09,JM,1706545249
66,loen,7.7601,168.2307,26.73,75,100,6.66,MH,1706545249
67,fort bragg,35.139,-79.006,12.08,48,0,6.17,US,1706545249
68,panguma,8.1833,-11.1333,36.27,18,74,1.11,SL,1706545040
69,puerto natales,-51.7236,-72.4875,18.25,48,75,9.26,CL,1706545250
70,aswan,24.0934,32.907,18.31,29,9,4.63,EG,1706545250
71,baise city,23.8997,106.6133,13.52,99,97,0.95,CN,1706545250
72,sur,22.5667,59.5289,24.24,71,70,0.09,OM,1706545250
73,wewak,-3.5534,143.6268,25.18,90,100,1.85,PG,1706545250
74,gorontalo,0.5412,123.0595,24.14,96,38,1.68,ID,1706545250
75,sitka,57.0531,-135.33,8.94,81,100,7.2,US,1706545250
76,swan hill,-35.3378,143.5544,20.97,61,0,4.89,AU,1706545250
77,apiai,-24.5094,-48.8425,24.93,45,45,1.55,BR,1706545251
78,saurimo,-9.6608,20.3916,23.33,80,98,1.62,AO,1706545251
79,souillac,-20.5167,57.5167,27.21,94,75,3.6,MU,1706545251
80,ust-nera,64.5667,143.2,-39.35,98,74,1.96,RU,1706545251
81,boali,4.8005,18.1275,36.2,13,42,2.08,CF,1706545251
82,matamba,-8.9833,33.9667,15.75,97,99,0.77,TZ,1706545251
83,okhotsk,59.3833,143.3,-25.56,80,7,3.78,RU,1706545251
84,gourin,48.1387,-3.6076,13.57,82,79,5.04,FR,1706545251
85,usinsk,65.9939,57.5281,-12.18,94,93,8.05,RU,1706545252
86,kargasok,59.0556,80.8572,-16.69,96,92,4.02,RU,1706545252
87,oyama,36.3,139.8,8.66,53,40,1.38,JP,1706545252
88,yuzhno-kurilsk,44.0306,145.8556,-2.57,83,18,1.38,RU,1706545252
89,coracora,-15.0333,-73.7833,17.47,55,85,3.7,PE,1706545252
90,nuku'alofa,-21.1333,-175.2,23.19,94,75,1.03,TO,1706545252
91,bardai,11.65,7.2333,29.72,10,4,5.49,NG,1706545252
92,isafjordur,66.0755,-23.124,-1.98,93,100,1.54,IS,1706545253
93,alice springs,-23.7,133.8833,28.45,13,71,0.89,AU,1706545120
94,anqing,30.5092,117.0506,7.74,74,100,1.0,CN,1706545253
95,kavaratti,10.5669,72.642,27.85,65,27,3.43,IN,1706545253
96,lompoc,34.6391,-120.4579,18.66,71,0,5.66,US,1706545253
97,qaqortoq,60.7167,-46.0333,-20.42,71,65,1.41,GL,1706545253
98,jamestown,42.097,-79.2353,1.77,97,100,3.6,US,1706545237
99,lebu,-37.6167,-73.65,18.48,60,62,5.51,CL,1706545253
100,hohhot,40.8106,111.6522,-14.84,72,0,3.0,CN,1706545253
101,kapuskasing,49.4169,-82.4331,-1.95,86,100,3.6,CA,1706545204
102,zhezqazghan,47.7833,67.7667,-15.0,88,92,3.73,KZ,1706545254
103,nong kung si,16.65,103.3,25.87,59,57,2.41,TH,1706545254
104,nemuro,43.3236,145.575,-1.21,84,17,2.45,JP,1706545254
105,sena madureira,-9.0656,-68.6569,28.59,75,95,1.48,BR,1706545254
106,dwarka,22.2394,68.9678,22.45,78,7,4.45,IN,1706545254
107,gidam,18.9833,81.4,18.9,37,35,0.26,IN,1706545254
108,puerto ayora,-0.7393,-90.3518,30.98,81,100,5.03,EC,1706545254
109,hammerfest,70.6634,23.6821,2.25,75,75,30.87,NO,1706545254
110,yamada,39.4667,141.95,2.56,81,22,2.39,JP,1706545255
111,holualoa,19.6228,-155.9522,19.91,88,0,4.63,US,1706545013
112,hermosillo,29.0667,-110.9667,22.14,34,40,1.34,MX,1706545250
113,weno,7.4515,151.8468,25.97,94,100,2.06,FM,1706545255
114,college,64.8569,-147.8028,-31.03,62,100,0.0,US,1706545255
115,klyuchi,52.2667,79.1667,-19.03,98,26,2.89,RU,1706545255
116,yeppoon,-23.1333,150.7333,27.88,91,100,2.45,AU,1706545255
117,minas de marcona,-15.2119,-75.1103,24.0,58,97,5.35,PE,1706545255
118,papatowai,-46.5619,169.4708,12.34,85,92,2.92,NZ,1706545255
119,fort wayne,41.1306,-85.1289,1.14,86,100,3.6,US,1706545255
120,qui nhon,13.7667,109.2333,20.84,89,100,3.45,VN,1706545256
121,happy valley-goose bay,53.3168,-60.3315,-21.83,41,0,4.12,CA,1706545256
122,ulanhot,46.0833,122.0833,-20.54,79,89,0.8,CN,1706545256
123,monrovia,6.3005,-10.7969,32.87,67,24,5.73,LR,1706545256
124,dikhil,11.5,42.1667,25.57,63,66,3.3,DJ,1706545256
125,pitkyaranta,61.5734,31.4792,1.4,86,94,6.32,RU,1706545256
126,yermolayevo,52.7167,55.8,-17.45,99,32,0.91,RU,1706545256
127,georgetown,5.4112,100.3354,28.97,81,20,2.57,MY,1706545256
128,muromtsevo,56.3724,75.2418,-11.56,97,100,1.72,RU,1706545257
129,genhe,50.7833,121.5167,-37.06,100,79,0.35,CN,1706545257
130,nakhon thai,17.1006,100.8374,21.69,86,70,1.22,TH,1706545257
131,tralee,52.2704,-9.7026,8.14,71,20,3.6,IE,1706545257
132,timbuktu,16.7735,-3.0074,30.25,8,1,3.71,ML,1706545257
133,chibougamau,49.9168,-74.3659,-14.21,72,0,2.06,CA,1706545257
134,arteche,12.2645,125.4048,24.89,84,100,6.36,PH,1706545257
135,iskateley,67.6803,53.1512,-8.32,92,100,8.49,RU,1706545257
136,villaquilambre,42.6469,-5.5584,14.09,85,0,1.54,ES,1706545258
137,saipan,15.1355,145.701,24.39,73,40,6.17,MP,1706545258
138,tiksi,71.6872,128.8694,-23.37,97,98,3.32,RU,1706545258
139,kulhudhuffushi,6.6221,73.07,27.55,67,6,4.31,MV,1706545258
140,afaahiti,-17.75,-149.2833,25.93,78,100,1.94,PF,1706545258
141,nang rong,14.6377,102.7914,24.94,53,76,2.6,TH,1706545258
142,nova sintra,14.8667,-24.7167,22.01,60,24,7.56,CV,1706545258
143,west island,-12.1568,96.8225,25.99,73,10,2.57,CC,1706545259
144,kirakira,-10.4544,161.9205,25.87,92,99,4.52,SB,1706545259
145,salalah,17.0151,54.0924,26.05,65,20,2.06,OM,1706545259
146,darnah,32.767,22.6367,12.25,58,82,9.49,LY,1706545259
147,dudinka,69.4058,86.1778,-14.1,83,100,8.05,RU,1706545259
148,pisco,-13.7,-76.2167,27.23,69,0,5.14,PE,1706545259
149,quellon,-43.1167,-73.6167,15.78,62,2,4.17,CL,1706545259
150,susuman,62.7833,148.1667,-37.79,97,100,0.45,RU,1706545260
151,aripuana,-9.1667,-60.6333,27.53,73,100,0.88,BR,1706545260
152,mount gambier,-37.8333,140.7667,11.86,93,5,2.47,AU,1706545154
153,fale old settlement,-9.3852,-171.2468,28.81,73,96,1.69,TK,1706545260
154,chonchi,-42.6128,-73.8092,19.56,39,18,1.25,CL,1706545260
155,new norfolk,-42.7826,147.0587,10.95,97,11,1.3,AU,1706545260
156,crane,31.3974,-102.3501,11.55,47,27,4.45,US,1706545260
157,hoshangabad,22.75,77.7167,19.75,30,91,1.46,IN,1706545260
158,udachny,66.4167,112.4,-22.53,83,99,1.12,RU,1706545260
159,najran,17.4924,44.1277,25.36,54,45,3.15,SA,1706545261
160,ketchikan,55.3422,-131.6461,10.26,81,100,11.32,US,1706545261
161,chimore,-16.9833,-65.1333,28.42,85,82,0.45,BO,1706545261
162,fort st. john,56.2499,-120.8529,2.94,70,75,4.63,CA,1706545256
163,walvis bay,-22.9575,14.5053,20.61,62,71,10.26,NA,1706545261
164,bawku,11.0616,-0.2417,35.05,9,3,2.97,GH,1706545261
165,fisterra,42.9049,-9.2629,16.53,87,100,5.51,ES,1706545262
166,dien bien phu,21.3833,103.0167,14.87,98,1,1.13,VN,1706545262
167,santa cruz,-17.8,-63.1667,30.7,65,75,8.23,BO,1706545218
168,broken hill,-31.95,141.4333,26.07,33,0,7.5,AU,1706545262
169,longyearbyen,78.2186,15.6401,-3.09,86,100,12.35,SJ,1706545262
170,mar del plata,-38.0023,-57.5575,28.07,73,40,9.83,AR,1706545263
171,salvador,13.8333,-88.9167,29.22,50,24,2.64,SV,1706545263
172,howrah,22.5892,88.3103,19.0,68,20,1.54,IN,1706545263
173,itaituba,-4.2761,-55.9836,29.09,74,75,2.57,BR,1706545150
174,zinjibar,13.1287,45.3807,25.54,80,95,3.27,YE,1706545264
175,vilyuchinsk,52.9306,158.4028,-14.48,88,81,3.43,RU,1706545264
176,vorgashor,67.5833,63.95,-16.6,96,83,4.07,RU,1706545264
177,cidreira,-30.1811,-50.2056,24.61,75,43,2.66,BR,1706545264
178,moshi,-3.35,37.3333,25.44,65,98,3.64,TZ,1706545264
179,amga,60.8953,131.9608,-42.53,100,100,0.86,RU,1706545265
180,vernon,50.2581,-119.2691,4.57,93,100,2.06,CA,1706545265
181,haiku-pauwela,20.9219,-156.3051,23.91,79,100,8.23,US,1706545265
182,barakani,-12.1356,44.4317,27.69,71,99,2.32,KM,1706545265
183,hermanus,-34.4187,19.2345,27.11,47,86,12.65,ZA,1706545266
184,maulavi bazar,24.4833,91.7833,15.66,49,24,0.66,BD,1706545266
185,kodiak,57.79,-152.4072,-12.27,67,0,7.72,US,1706545266
186,rongelap,11.1635,166.8941,26.14,76,100,5.4,MH,1706545266
187,chaplynka,46.3651,33.5403,1.32,66,23,4.12,UA,1706545266
188,ola,59.5833,151.2833,-22.53,84,33,3.11,RU,1706545267
189,bubaque,11.2833,-15.8333,27.4,46,83,3.07,GW,1706545267
190,utrik,11.2278,169.8474,26.04,69,56,5.47,MH,1706545267
191,valley city,46.9233,-98.0032,3.29,100,0,7.72,US,1706545267
192,enewetak,11.3474,162.3373,25.62,64,26,3.94,MH,1706545268
193,pagar alam,-4.0167,103.2667,21.29,98,100,0.27,ID,1706545268
194,jayapura,-2.5333,140.7,23.66,90,100,0.84,ID,1706545268
195,palmer,42.1584,-72.3287,1.75,79,100,6.69,US,1706545268
196,constantia,44.1833,28.65,1.5,73,99,8.55,RO,1706545269
197,sann,26.0418,68.1378,20.86,30,51,2.03,PK,1706545269
198,queenstown,-31.8976,26.8753,31.12,26,99,2.8,ZA,1706545269
199,morley,53.7401,-1.5988,11.81,95,75,4.12,GB,1706545269
200,langzhong,31.5504,105.9938,8.65,58,59,0.48,CN,1706545269
201,gobabis,-22.45,18.9667,20.4,72,100,2.72,NA,1706545270
202,rabaul,-4.1967,152.1721,26.97,81,100,4.54,PG,1706545270
203,uturoa,-16.7333,-151.4333,28.17,76,90,1.5,PF,1706545270
204,nar'yan-mar,67.6713,53.087,-8.27,92,100,8.49,RU,1706545270
205,guanajuato,21.0186,-101.2591,10.44,37,98,1.97,MX,1706545270
206,punta arenas,-53.15,-70.9167,16.01,55,40,7.2,CL,1706545271
207,anadyr,64.75,177.4833,-34.72,66,20,5.0,RU,1706545271
208,saint-leu,-21.15,55.2833,27.46,89,57,6.8,RE,1706545271
209,ivdel',60.6911,60.4206,-16.56,99,59,0.89,RU,1706545271
210,petropavlovsk-kamchatsky,53.0452,158.6483,-15.3,93,0,4.0,RU,1706545271
211,guerrero negro,27.9769,-114.0611,19.08,45,35,0.99,MX,1706545272
212,port saint john's,-31.6229,29.5448,28.4,77,11,9.03,ZA,1706545272
213,pathein,16.7833,94.7333,21.67,60,47,2.3,MM,1706545272
214,sabang,5.8933,95.3214,27.63,76,21,6.2,ID,1706545272
215,fort mcmurray,56.7268,-111.381,-1.23,93,40,3.6,CA,1706545065
216,sao sebastiao do cai,-29.5867,-51.3756,29.2,51,62,1.72,BR,1706545273
217,kimbe,-5.5502,150.1429,25.14,92,99,1.05,PG,1706545273
218,dunedin,-45.8742,170.5036,14.89,73,36,1.79,NZ,1706545273
219,cockburn town,21.4612,-71.1419,25.37,77,1,5.75,TC,1706545040
220,qamdo,31.1667,97.2333,-8.87,37,67,1.77,CN,1706545274
221,ascension,30.2169,-90.9001,13.93,68,0,2.06,US,1706545274
222,isoka,-10.1606,32.6335,19.96,91,100,0.4,ZM,1706545274
223,plavsk,53.7094,37.2919,-8.03,96,70,4.26,RU,1706545274
224,letterkenny,54.95,-7.7333,7.96,73,100,2.32,IE,1706545275
225,tsiombe,-25.3,45.4833,23.4,79,31,7.3,MG,1706545275
226,port elizabeth,-33.918,25.5701,27.28,73,0,1.54,ZA,1706545275
227,manokwari,-0.8667,134.0833,26.26,81,96,1.12,ID,1706545275
228,maralal,1.0968,36.698,20.78,48,86,6.82,KE,1706545276
229,prado,-17.3411,-39.2208,28.64,72,100,4.01,BR,1706545276
230,sechura,-5.5569,-80.8222,28.28,64,94,2.72,PE,1706545276
231,atafu village,-8.5421,-172.5159,28.66,73,99,1.72,TK,1706545277
232,farasan,16.7022,42.1183,25.91,74,67,4.46,SA,1706545277
233,refahiye,39.9008,38.7667,-12.15,91,23,1.06,TR,1706545277
234,swift current,50.2834,-107.8014,1.45,93,0,5.66,CA,1706545093
235,codrington,-38.2667,141.9667,12.62,89,0,3.22,AU,1706545278
236,igrim,63.1906,64.4162,-18.08,99,64,2.14,RU,1706545278
237,jiangyou,31.7667,104.7167,6.18,65,93,1.41,CN,1706545278
238,severo-yeniseyskiy,60.3725,93.0408,-29.68,98,34,1.79,RU,1706545278
239,kwang binh,17.4833,106.6,18.2,89,100,2.16,VN,1706545279
240,kapa'a,22.0752,-159.319,23.18,87,100,7.2,US,1706545279
241,abou el hassan,36.4166,1.1962,23.69,61,100,2.32,DZ,1706545279
242,pacasmayo,-7.4006,-79.5714,25.69,78,98,3.8,PE,1706545280
243,port hedland,-20.3167,118.5667,26.03,83,18,5.66,AU,1706545280
244,nanao,37.05,136.9667,0.66,78,6,0.57,JP,1706545280
245,saint-denis,48.9167,2.3333,13.45,76,0,4.12,FR,1706545281
246,tolanaro,-25.0319,46.9987,25.04,83,75,6.17,MG,1706545281
247,at taj,24.2049,23.2857,15.37,39,0,5.44,LY,1706545281
248,gohadi,26.4261,78.4447,15.43,49,26,1.79,IN,1706545282
249,sroda wielkopolska,52.2284,17.2762,5.96,69,100,3.54,PL,1706545282
250,rio grande,-32.035,-52.0986,26.06,69,72,5.13,BR,1706545282
251,polyarnyy,69.1989,33.4478,2.21,67,91,16.38,RU,1706545283
252,ciudad bolivar,8.1222,-63.5497,34.18,34,4,3.75,VE,1706545283
253,midvagur,62.0511,-7.1939,8.46,76,75,7.72,FO,1706545284
254,kachug,53.9606,105.8817,-37.48,100,53,0.64,RU,1706545285
255,hekimhan,38.818,37.9312,-3.71,81,60,1.14,TR,1706545285
256,ehningen,48.6588,8.9412,10.75,59,94,0.74,DE,1706545286
257,san ignacio,17.1561,-89.0714,21.08,83,75,3.09,BZ,1706545011
258,sariveliler,36.6913,32.6196,-3.51,75,100,3.48,TR,1706545286
259,cam ranh,11.9214,109.1591,24.98,78,75,5.14,VN,1706545287
260,zamosc,50.7231,23.252,-0.07,83,25,3.39,PL,1706545287
261,al bawiti,28.3492,28.8659,13.26,50,13,6.25,EG,1706545287
262,bredasdorp,-34.5322,20.0403,30.39,22,10,10.55,ZA,1706545288
263,zeya,53.75,127.2667,-23.62,96,96,1.03,RU,1706545288
264,salinas,36.6777,-121.6555,17.07,75,0,9.77,US,1706545226
265,bozeman,45.6796,-111.0386,5.51,85,0,2.06,US,1706545223
266,mejit,10.2753,170.8646,25.77,74,99,6.18,MH,1706545289
267,la libertad,-2.2333,-80.9,28.81,74,40,3.09,EC,1706545290
268,richards bay,-28.783,32.0377,26.77,68,7,6.73,ZA,1706545290
269,krasnyy kut,50.95,46.9667,-12.5,100,40,1.84,RU,1706545290
270,alaghsas,17.0187,8.0168,26.94,12,67,10.29,NE,1706545290
271,kenora,49.8167,-94.4337,-2.46,93,100,2.57,CA,1706545290
272,remire-montjoly,4.9167,-52.2667,26.02,94,75,2.57,GF,1706545291
273,cururupu,-1.8283,-44.8683,29.17,68,88,3.02,BR,1706545291
274,novodvinsk,64.4165,40.8122,0.86,92,100,5.03,RU,1706545291
275,taltal,-25.4,-70.4833,22.07,73,16,2.49,CL,1706545291
276,highfields,-27.4518,151.9463,21.87,97,100,5.93,AU,1706545291
277,nantucket,41.2835,-70.0995,2.22,100,100,9.77,US,1706545003
278,sambava,-14.2667,50.1667,24.49,93,91,2.5,MG,1706545292
279,kuta,-8.7233,115.1723,26.97,88,20,1.03,ID,1706545292
280,warmbad,-28.45,18.7333,31.54,18,91,10.19,NA,1706545293
281,mili,6.0815,171.735,27.54,84,100,7.52,MH,1706545293
282,muang khong,14.1167,105.85,23.92,54,90,1.35,LA,1706545293
283,santa teresa di riva,37.947,15.3677,13.45,66,47,0.9,IT,1706545293
284,hangu,39.2489,117.7892,-1.98,80,9,4.13,CN,1706545293
285,bandundu,-3.3167,17.3667,31.45,55,93,0.42,CD,1706545020
286,khandyga,62.6667,135.6,-47.15,100,81,0.98,RU,1706545294
287,masallatah,32.6167,14.0,13.19,58,49,5.39,LY,1706545294
288,kill devil hills,36.0307,-75.676,9.0,75,100,5.66,US,1706545294
289,lesozavodsk,45.4794,133.4244,-25.15,100,76,1.44,RU,1706545295
290,xinmin,41.9908,122.8253,-11.84,81,3,2.16,CN,1706545295
291,westerland,54.9079,8.3033,5.57,100,100,4.63,DE,1706545295
292,toliara,-23.35,43.6667,26.43,80,55,2.35,MG,1706545295
293,tarancon,40.0085,-3.0073,13.29,56,100,3.44,ES,1706545295
294,charters towers,-20.1,146.2667,25.59,89,100,1.67,AU,1706545296
295,tura,25.5198,90.2201,14.01,56,0,1.36,IN,1706545296
296,ourem,39.6417,-8.5919,19.23,100,83,2.6,PT,1706545296
297,nis,43.7031,7.2661,13.89,62,0,2.57,FR,1706545296
298,ulricehamn,57.7916,13.4142,4.67,82,100,2.24,SE,1706545296
299,sao geraldo do araguaia,-6.4006,-48.555,27.39,86,86,1.86,BR,1706545297
300,revda,56.801,59.9303,-10.22,94,100,3.18,RU,1706545297
301,paris,48.8534,2.3488,13.47,77,0,4.12,FR,1706545061
302,kuanda,56.3161,116.0806,-35.9,95,58,0.44,RU,1706545297
303,as sulayyil,20.4607,45.5779,24.14,40,99,4.81,SA,1706545298
304,oakdale,44.963,-92.9649,2.98,90,0,2.06,US,1706545131
305,madang,-5.2246,145.7966,24.96,93,97,3.12,PG,1706545298
306,calingasta,-31.3308,-69.4078,29.78,25,2,1.38,AR,1706545298
307,kiunga,-6.1219,141.2906,23.83,99,100,1.11,PG,1706545298
308,kavieng,-2.5744,150.7967,27.81,79,100,5.09,PG,1706545298
309,hadibu,12.65,54.0333,24.78,66,46,3.76,YE,1706545299
310,ceeldheer,3.8488,47.1806,26.55,81,62,8.32,SO,1706545299
311,lijiang,26.8688,100.2207,0.56,68,13,2.1,CN,1706545299
312,sandy point town,17.35,-62.8333,28.31,76,0,5.93,KN,1706545299
313,nouadhibou,20.931,-17.0347,29.99,10,0,2.57,MR,1706545299
314,alsunga,56.9819,21.5594,3.8,71,100,6.44,LV,1706545300
315,san borja,-14.8167,-66.85,32.66,55,53,2.02,BO,1706545024
316,arifwala,30.294,73.0735,15.02,30,8,2.12,PK,1706545300
317,peniche,39.3558,-9.3811,19.6,83,85,5.36,PT,1706545207
318,selfoss,63.9331,-20.9971,1.69,95,100,10.98,IS,1706545300
319,indre arna,60.4247,5.4764,4.25,85,100,1.79,NO,1706545301
320,san patricio,28.017,-97.5169,16.92,55,12,1.18,US,1706545301
321,ebon,4.582,168.6964,26.63,85,100,5.46,MH,1706545301
322,keetmanshoop,-26.5833,18.1333,30.51,35,100,9.26,NA,1706545301
323,carutapera,-1.195,-46.02,30.7,61,76,4.1,BR,1706545301
324,banda aceh,5.5577,95.3222,25.96,85,41,3.03,ID,1706545301
325,carnarvon,-24.8667,113.6333,23.05,82,0,9.52,AU,1706545302
326,nepean,45.3449,-75.7631,-0.69,79,100,4.92,CA,1706545302
327,eleskirt,39.8033,42.6736,-8.19,95,100,1.27,TR,1706545302
328,bentiu,9.2333,29.8333,30.23,14,100,2.25,SS,1706545302
329,nova vicosa,-17.8919,-39.3719,28.32,73,100,3.64,BR,1706545302
330,boguchany,58.3814,97.4531,-27.86,99,29,1.79,RU,1706545302
331,galle,6.0367,80.217,25.89,84,90,1.01,LK,1706545303
332,saint-philippe,-21.3585,55.7679,25.77,87,60,4.85,RE,1706545303
333,pulsano,40.3821,17.3564,10.74,58,20,3.09,IT,1706545303
334,mont-laurier,46.5501,-75.4993,-5.21,84,32,2.62,CA,1706545303
335,tommot,58.9564,126.2925,-31.15,98,100,0.81,RU,1706545303
336,magadan,59.5667,150.8,-21.93,77,19,2.8,RU,1706545303
337,prince rupert,54.3161,-130.3201,10.83,81,100,23.66,CA,1706545296
338,hassi messaoud,31.6804,6.0729,18.92,45,0,2.06,DZ,1706545304
339,lumphat,13.4878,106.9816,23.01,65,96,3.65,KH,1706545304
340,puerto cabezas,14.0351,-83.3888,29.98,74,75,5.14,NI,1706545304
341,nadym,65.5333,72.5167,-20.71,95,46,4.55,RU,1706545304
342,la ronge,55.1001,-105.2842,-1.86,80,20,2.06,CA,1706545304
343,hastings,50.8552,0.5729,10.63,56,93,4.45,GB,1706545305
344,colares,38.7992,-9.4469,19.07,86,20,5.81,PT,1706545305
345,karystos,38.0133,24.4161,9.44,65,96,8.67,GR,1706545305
346,arraial do cabo,-22.9661,-42.0278,27.92,74,40,4.63,BR,1706545135
347,arkhangel'sk,64.5401,40.5433,1.06,100,100,4.0,RU,1706545305
348,mogocha,53.7333,119.7667,-28.4,97,100,1.41,RU,1706545305
349,yarmouth,41.7057,-70.2286,2.79,91,100,13.41,US,1706545305
350,east end,34.5507,-92.341,10.64,75,0,1.32,US,1706545306
351,bhag,29.0415,67.8239,18.73,24,100,1.0,PK,1706545306
352,zhangatas,43.5667,69.75,-0.83,94,100,10.93,KZ,1706545306
353,qandala,11.472,49.8728,25.71,79,70,1.33,SO,1706545040
354,saudarkrokur,65.7461,-19.6394,-0.24,83,100,5.19,IS,1706545306
355,egersund,58.4513,5.9997,5.21,87,97,2.89,NO,1706545306
356,ta`u,-14.2336,-169.5144,28.12,77,100,5.0,AS,1706545306
357,lobito,-12.3481,13.5456,28.07,72,14,2.94,AO,1706545306
358,mary,37.0,62.5,6.72,67,100,5.13,TM,1706545307
359,renqiu,38.6989,116.0936,-1.77,91,12,2.91,CN,1706545307
360,airuk,7.2772,168.8203,26.88,79,100,7.41,MH,1706545307
361,carauari,-4.8828,-66.8958,32.89,54,48,1.49,BR,1706545307
362,barentu,15.1139,37.5928,24.79,36,63,5.36,ER,1706545307
363,nyrob,60.733,56.7202,-14.71,99,97,1.37,RU,1706545307
364,dryden,49.7833,-92.7503,-2.84,100,100,3.6,CA,1706545307
365,bielsk podlaski,52.7651,23.1865,1.81,84,83,4.26,PL,1706545308
366,vila franca do campo,37.7167,-25.4333,18.27,99,100,10.23,PT,1706545308
367,port louis,-20.1619,57.4989,28.01,85,11,3.54,MU,1706545242
368,arenapolis,-14.4503,-56.8461,35.81,37,42,2.05,BR,1706545308
369,lubsko,51.7847,14.972,7.71,52,99,4.42,PL,1706545308
370,kailua-kona,19.6406,-155.9956,21.98,89,0,4.63,US,1706545308
371,mount isa,-20.7333,139.5,25.87,83,100,0.0,AU,1706545308
372,salta,-24.7859,-65.4117,30.88,48,40,2.57,AR,1706545309
373,kone,-21.0595,164.8658,23.82,85,98,0.49,NC,1706545309
374,mansa,29.9833,75.3833,14.22,44,0,2.58,IN,1706545309
375,tongouson,5.0214,120.1328,27.16,80,94,5.84,PH,1706545309
376,linxia chengguanzhen,35.6003,103.2064,-2.06,38,15,0.87,CN,1706545309
377,weyburn,49.6668,-103.8511,-3.88,86,0,2.06,CA,1706545309
378,sibolga,1.7427,98.7792,24.96,89,76,1.52,ID,1706545309
379,kirensk,57.7853,108.1119,-38.91,100,67,0.45,RU,1706545309
380,hilo,19.7297,-155.09,24.04,72,20,2.06,US,1706545200
381,la'ie,21.6477,-157.9253,24.69,84,12,0.89,US,1706545310
382,udaipura,23.0833,78.5,19.4,30,80,2.29,IN,1706545310
383,geraldton,-28.7667,114.6,20.23,77,0,6.69,AU,1706545239
384,poso,-1.3959,120.7524,25.57,89,96,1.64,ID,1706545310
385,slavgorod,52.9978,78.6449,-17.46,97,67,3.56,RU,1706545310
386,boyolangu,-8.1181,111.8935,25.1,89,96,1.15,ID,1706545310
387,makurazaki,31.2667,130.3167,8.55,71,48,3.85,JP,1706545310
388,kyshtovka,56.555,76.6271,-12.03,97,100,1.34,RU,1706545310
389,belyy yar,53.6039,91.3903,-21.06,92,100,2.0,RU,1706545311
390,greenville,35.6127,-77.3663,11.09,64,100,5.14,US,1706545311
391,shwebo,22.5667,95.7,18.94,58,21,1.76,MM,1706545311
392,undurkhaan,47.3194,110.6556,-26.62,100,85,1.49,MN,1706545311
393,sinabang,2.4803,96.3801,27.0,80,48,1.64,ID,1706545311
394,port alfred,-33.5906,26.891,29.74,65,71,8.86,ZA,1706545311
395,port shepstone,-30.7414,30.455,25.74,85,9,9.67,ZA,1706545311
396,guaruja,-23.9931,-46.2564,28.92,61,0,4.12,BR,1706545312
397,ciftlikkoy,40.6603,29.3236,4.4,84,100,6.08,TR,1706545312
398,bandipura,34.4167,74.65,3.98,84,78,1.5,IN,1706545312
399,tazacorte,28.629,-17.9293,21.54,64,12,2.06,ES,1706545312
400,panama city beach,30.1766,-85.8055,13.32,65,0,4.12,US,1706545250
401,ingenio la esperanza,-24.2255,-64.839,33.27,25,0,1.78,AR,1706545312
402,choibalsan,48.0667,114.5,-26.09,100,100,1.66,MN,1706545312
403,xining,36.6167,101.7667,-1.99,20,59,0.61,CN,1706545313
404,ancud,-41.8697,-73.8203,16.74,55,51,2.2,CL,1706545313
405,shingu,33.7333,135.9833,4.24,67,32,2.59,JP,1706545313
406,hengyang,26.8881,112.615,7.28,93,88,0.72,CN,1706545313
407,karasburg,-28.0167,18.75,28.25,27,100,12.89,NA,1706545313
408,wooster,40.8051,-81.9351,1.32,90,100,5.14,US,1706545275
409,kodinsk,58.6881,99.1844,-28.64,100,7,0.75,RU,1706545313
410,marvejols,44.5538,3.2914,8.54,83,100,2.82,FR,1706545313
411,iquitos,-3.7481,-73.2472,29.02,89,75,2.06,PE,1706545313
412,eraan,9.0629,117.7016,24.83,84,54,1.91,PH,1706545314
413,finnentrop,51.1667,7.9667,10.23,83,98,1.9,DE,1706545071
414,callao,-12.0667,-77.15,27.16,65,0,5.66,PE,1706545314
415,north elba,44.2434,-73.9543,-1.12,86,100,0.45,US,1706545314
416,oliver,49.1831,-119.5524,8.14,93,100,1.54,CA,1706545314
417,saint-pierre,-21.3393,55.4781,25.82,94,100,4.12,RE,1706545104
418,lodja,-3.4833,23.4333,26.39,69,100,1.21,CD,1706545314
419,smidovich,48.6,133.8167,-24.44,95,28,3.27,RU,1706545314
420,bazarnyy karabulak,52.2683,46.4144,-5.09,93,60,3.1,RU,1706545314
421,colonia,50.9333,6.95,12.46,65,0,3.6,DE,1706545315
422,kedrovyy,56.1667,91.8167,-26.19,96,98,2.46,RU,1706545315
423,arvika,59.6553,12.5852,2.34,100,100,0.66,SE,1706545315
424,hotan,37.0997,79.9269,-1.12,45,100,2.37,CN,1706545315
425,qaryat suluq,31.6682,20.2521,14.42,51,96,5.3,LY,1706545036
426,papao,-17.75,-149.55,26.82,75,100,0.56,PF,1706545315
427,muang phon-hong,18.4928,102.4172,18.84,91,51,1.17,LA,1706545315
428,nogliki,51.8333,143.1667,-13.14,93,99,2.68,RU,1706545315
429,new plymouth,-39.0667,174.0833,17.67,82,70,5.67,NZ,1706545315
430,yuzhno-sukhokumsk,44.6581,45.6436,-2.16,82,100,3.37,RU,1706545155
431,alesund,62.4723,6.1549,6.85,76,75,8.75,NO,1706545316
432,mana,5.6592,-53.7767,27.85,76,46,4.48,GF,1706545316
433,podporozh'ye,60.9112,34.1706,1.51,79,100,6.72,RU,1706545316
434,san matias,-16.3667,-58.4,36.54,37,77,2.05,BO,1706545316
435,coquimbo,-29.9533,-71.3436,17.85,94,100,3.6,CL,1706545022
436,rehoboth,-23.3167,17.0833,26.37,38,82,5.42,NA,1706545316
437,ouani,-12.1322,44.4258,27.98,70,99,2.35,KM,1706545316
438,mhamid,29.82,-5.72,23.25,12,0,4.83,MA,1706545316
439,marka,1.7159,44.7717,26.39,86,47,6.86,SO,1706545317
440,gambiran satu,-8.3939,114.1464,23.43,96,92,1.2,ID,1706545317
441,armacao de buzios,-22.7469,-41.8817,28.03,74,5,2.93,BR,1706545317
442,piriapolis,-34.8682,-55.2744,28.09,56,20,4.12,UY,1706545317
443,estevan,49.1334,-102.9842,2.19,93,0,5.14,CA,1706545317
444,ocos,14.5094,-92.1933,32.1,58,3,1.36,GT,1706545317
445,starkville,33.4504,-88.8184,5.81,93,100,2.57,US,1706545317
446,wajir,1.7471,40.0573,33.98,43,0,2.06,KE,1706545317
447,east london,-33.0153,27.9116,26.52,78,0,7.2,ZA,1706545317
448,ndibene dahra,15.3338,-15.4766,32.99,7,59,5.92,SN,1706545318
449,argo,37.6333,22.7333,5.29,78,44,3.13,GR,1706545318
450,adam,22.3756,57.5233,25.2,26,93,5.03,OM,1706545318
451,viqueque,-8.8673,126.3658,26.0,90,98,2.2,TL,1706545318
452,sant lluis,39.8526,4.2594,15.22,72,20,5.14,ES,1706545318
453,somerset,40.5668,-74.5496,4.79,75,100,7.2,US,1706545318
454,cascais,38.6979,-9.4215,19.17,87,40,5.81,PT,1706545318
455,el sauzal de rodriguez,31.9,-116.6833,14.68,53,49,1.83,MX,1706545318
456,tevriz,57.509,72.4042,-13.81,98,100,1.0,RU,1706545318
457,obo,5.3998,26.4869,31.37,21,100,1.89,CF,1706545319
458,jabor,5.921,169.6434,26.83,86,100,7.54,MH,1706545319
459,midleton,51.9153,-8.1805,6.88,93,100,6.29,IE,1706545319
460,sakakah,29.9697,40.2064,15.76,43,0,2.25,SA,1706545319
461,bandrele,-12.9067,45.1914,28.86,74,0,3.09,YT,1706545319
462,mamadysh,55.7152,51.408,-4.4,95,100,4.06,RU,1706545319
463,mitu,1.1983,-70.1733,30.91,64,97,0.53,CO,1706545319
464,tongchuan,35.0806,109.0897,-0.37,70,7,2.07,CN,1706545319
465,strathalbyn,-35.2667,138.9,18.27,47,28,3.28,AU,1706545320
466,thisted,56.9552,8.6949,6.22,86,100,2.6,DK,1706545320
467,namibe,-15.1961,12.1522,25.7,65,0,5.89,AO,1706545320
468,penzance,50.1186,-5.5371,12.38,100,100,9.77,GB,1706545320
469,ocosingo,17.0667,-92.25,12.76,99,100,0.88,MX,1706545320
470,jaru,-10.4389,-62.4664,28.44,72,100,1.52,BR,1706545320
471,umm kaddadah,13.6017,26.6876,22.99,16,17,5.28,SD,1706545320
472,port lincoln,-34.7333,135.8667,17.55,90,8,4.84,AU,1706545320
473,el bosque,17.0667,-92.7333,10.16,100,100,1.56,MX,1706545321
474,male,4.1748,73.5089,28.97,79,20,7.72,MV,1706545321
475,neryungri,56.6709,124.6491,-30.84,98,100,1.85,RU,1706545321
476,saint joseph,39.7686,-94.8466,5.87,88,0,3.6,US,1706545321
477,igarka,67.4667,86.5833,-19.22,82,100,4.53,RU,1706545321
478,lospalos,-8.5186,127.0025,22.99,94,94,0.78,TL,1706545321
479,huancavelica,-12.7667,-74.9833,6.73,81,100,0.72,PE,1706545321
480,alofi,-19.0595,-169.9187,25.94,83,100,1.54,NU,1706545322
481,demba,-5.51,22.2667,24.65,86,98,0.72,CD,1706545322
482,st. john's,47.5649,-52.7093,-1.13,90,100,3.6,CA,1706545256
483,mednogorsk,51.4128,57.595,-18.41,99,29,0.65,RU,1706545322
484,timimoun,29.2639,0.231,25.21,15,0,8.23,DZ,1706545322
485,saint-joseph,-21.3667,55.6167,25.21,89,73,5.57,RE,1706545322
486,belyayevka,51.3974,56.4096,-18.92,100,44,0.6,RU,1706545323
487,portland,45.5234,-122.6762,12.12,90,75,3.58,US,1706545185
488,natal,-5.795,-35.2094,31.36,70,75,7.2,BR,1706545187
489,sisimiut,66.9395,-53.6735,-23.66,94,98,3.08,GL,1706545323
490,siracusa,37.0881,15.2792,12.77,63,86,2.15,IT,1706545324
491,wanning,18.8003,110.3967,21.22,89,64,2.85,CN,1706545324
492,fort wellington,6.4,-57.6,29.06,66,72,4.08,GY,1706545324
493,mao,39.8885,4.2658,15.31,72,20,5.14,ES,1706545324
494,hasaki,35.7333,140.8333,-0.78,47,22,1.26,JP,1706545325
495,ho chi minh city,10.75,106.6667,28.01,54,40,2.06,VN,1706545325
496,fereydun kenar,36.6864,52.5225,9.84,71,69,4.78,IR,1706545325
497,erenhot,43.6475,111.9767,-17.81,95,87,0.85,CN,1706545325
498,christchurch,-43.5333,172.6333,12.17,89,75,2.06,NZ,1706545028
499,cutral-co,-38.9469,-69.2089,29.95,10,0,0.69,AR,1706545326
500,feodosiya,45.0333,35.3833,1.57,74,82,7.18,UA,1706545326
501,yangambi,0.8102,24.4336,32.36,29,95,1.71,CD,1706545326
502,kayangel,8.0823,134.7173,27.07,85,100,10.72,PW,1706545326
503,cabedelo,-6.9811,-34.8339,32.37,66,14,6.23,BR,1706545195
504,eufaula,31.8913,-85.1455,11.19,61,0,3.6,US,1706545141
505,forster,-32.1667,152.5167,24.05,93,13,4.43,AU,1706545327
506,akureyri,65.6835,-18.0878,-2.04,93,100,2.06,IS,1706545327
507,malango,-2.9627,119.9001,20.7,97,100,0.91,ID,1706545328
508,monahans,31.5943,-102.8926,9.95,54,38,3.6,US,1706545328
509,tahe,52.3333,124.7333,-30.06,98,47,1.72,CN,1706545328
510,mafeteng,-29.823,27.2374,30.17,22,71,3.38,LS,1706545329
511,enriquillo,17.9,-71.2333,28.82,63,1,3.21,DO,1706545329
512,tamanrasset,22.785,5.5228,22.95,9,0,1.54,DZ,1706545329
513,mineral wells,32.8085,-98.1128,15.74,44,0,4.02,US,1706545244
514,praia da vitoria,38.7333,-27.0667,17.64,88,40,9.88,PT,1706545329
515,tezu,27.9167,96.1667,14.71,49,24,2.13,IN,1706545330
516,kapoeta,4.7717,33.5903,34.65,21,27,5.72,SS,1706545330
517,pierre,44.3683,-100.351,5.71,81,0,6.69,US,1706545330
518,patong,7.8961,98.2966,28.08,73,6,9.16,TH,1706545331
519,letlhakane,-21.4167,25.5833,30.7,33,84,2.62,BW,1706545331
520,mushie,-3.0167,16.9,32.31,51,99,0.33,CD,1706545331
521,la passe,45.5549,-0.8967,15.13,80,100,5.57,FR,1706545331
522,tonghae,37.5439,129.1069,0.47,65,70,2.18,KR,1706545332
523,lata,40.1629,-8.3327,19.95,53,91,2.18,PT,1706545332
524,az zawr,29.4425,48.2747,17.23,51,97,1.92,KW,1706545332
525,kabba,7.8287,6.0731,35.07,13,1,1.91,NG,1706545332
526,soderhamn,61.3037,17.0592,0.71,94,100,1.96,SE,1706545332
527,arlington,32.7357,-97.1081,16.57,57,0,3.09,US,1706545233
528,luderitz,-26.6481,15.1594,22.73,58,51,3.23,NA,1706545333
529,xiantao,30.3833,113.4,7.65,80,100,1.76,CN,1706545334
530,almodovar del rio,37.8336,-5.0167,17.49,63,0,1.54,ES,1706545334
531,el granada,37.5027,-122.4694,15.78,88,0,0.0,US,1706545334
532,yuksekova,37.5736,44.2872,-13.14,92,100,1.03,TR,1706545334
533,turochak,52.2576,87.1224,-11.19,97,100,1.14,RU,1706545335
534,tindouf,27.6711,-8.1474,23.76,11,0,4.33,DZ,1706545335
535,san luis,-33.295,-66.3356,33.63,24,0,2.38,AR,1706545135
536,isangel,-19.55,169.2667,23.61,79,81,2.68,VU,1706545335
537,ippy,6.2679,21.2247,35.27,16,76,1.21,CF,1706545336
538,oriximina,-1.7656,-55.8661,33.85,45,30,2.78,BR,1706545328
539,tazovsky,67.4667,78.7,-17.69,82,100,5.38,RU,1706545336
540,lesosibirsk,58.2358,92.4828,-17.27,82,10,4.51,RU,1706545336
541,medicine hat,50.0501,-110.6683,4.84,81,75,3.6,CA,1706545337
542,abohar,30.15,74.1833,14.45,30,1,2.36,IN,1706545337
543,kotlas,61.2611,46.6556,-4.41,93,100,4.02,RU,1706545338
544,anastacio,-20.4836,-55.8069,37.79,19,56,3.86,BR,1706545338
545,taoudenni,22.6783,-3.9836,28.87,7,0,4.38,ML,1706545338
546,yukhnov,54.7444,35.2297,-5.35,93,100,4.13,RU,1706545338
547,ghadamis,30.1337,9.5007,17.56,40,0,3.9,LY,1706545339
548,bogale,16.2833,95.4,23.07,72,89,2.6,MM,1706545339
549,areka,7.0667,37.7,22.03,53,91,0.82,ET,1706545339
550,marquette,46.5333,-87.6335,1.69,80,94,1.34,US,1706545340
551,saransk,54.1838,45.1749,-4.75,94,100,4.02,RU,1706545341
552,myskhako,44.6714,37.7433,0.33,78,47,8.3,RU,1706545341
553,maun,-19.9833,23.4167,28.98,47,93,0.68,BW,1706545343
554,seryshevo,51.0933,128.3786,-31.77,100,39,1.85,RU,1706545343
555,azhikkal,11.9,75.3667,24.7,75,37,1.72,IN,1706545344
556,deir ez-zor,35.3359,40.1408,8.3,78,99,6.76,SY,1706545344
557,roma,43.2128,-75.4557,1.09,89,100,4.63,US,1706545265
558,dawson creek,55.7666,-120.2362,8.8,57,0,5.66,CA,1706545344
559,januaria,-15.4833,-44.3667,27.35,80,81,1.57,BR,1706545345
560,mata-utu,-13.2816,-176.1745,29.16,81,100,7.73,WF,1706545345
561,whangarei,-35.7317,174.3239,18.04,83,40,2.56,NZ,1706545345
562,noumea,-22.2763,166.4572,21.99,78,98,1.58,NC,1706545314
563,ad dawadimi,24.5077,44.3924,21.64,40,98,4.44,SA,1706545346
